{
"type": "FeatureCollection",
"crs": { "type": "name", "properties": { "name": "urn:ogc:def:crs:OGC:1.3:CRS84" } },
"features": [
{ "type": "Feature", "properties": { "Name": "Spyglass Entrance", "description": "Access to Campbell's Hole", "timestamp": null, "begin": null, "end": null, "altitudeMode": null, "tessellate": -1, "extrude": 0, "visibility": -1, "drawOrder": null, "icon": null }, "geometry": { "type": "Point", "coordinates": [ -97.7875378, 30.2580503, 0.0 ] } },
{ "type": "Feature", "properties": { "Name": "Barton Springs Entrance", "description": "Access to Campbell's Hole", "timestamp": null, "begin": null, "end": null, "altitudeMode": null, "tessellate": -1, "extrude": 0, "visibility": -1, "drawOrder": null, "icon": null }, "geometry": { "type": "Point", "coordinates": [ -97.7712669, 30.2642242, 0.0 ] } },
{ "type": "Feature", "properties": { "Name": "Barton Hills Entrance", "description": "2010 Homedale Road", "timestamp": null, "begin": null, "end": null, "altitudeMode": null, "tessellate": -1, "extrude": 0, "visibility": -1, "drawOrder": null, "icon": null }, "geometry": { "type": "Point", "coordinates": [ -97.784268, 30.255572, 0.0 ] } },
{ "type": "Feature", "properties": { "Name": "Gus Fruh Entrance", "description": null, "timestamp": null, "begin": null, "end": null, "altitudeMode": null, "tessellate": -1, "extrude": 0, "visibility": -1, "drawOrder": null, "icon": null }, "geometry": { "type": "Point", "coordinates": [ -97.795208, 30.24941, 0.0 ] } },
{ "type": "Feature", "properties": { "Name": "Main Entrance", "description": "\"When I first moved to Austin, I heard people talking about “the Greenbelt.” With piqued interest, I did a trusty Google search. Loop 360 is the only access point Google references. Even so, I’ll be honest: I had a strangely hard time finding this entrance because–as you pull up–it looks like you’re entering an office complex.<br><br>Remember, just turn at that light! There’s a designated parking lot with overflow parking in the office park on weekends. You’ll see the distinct Austin Parks and Recreation sign as you pull up–which all public access points have.<br><br>This access point is where you start to notice more mountain bikers, since from here the terrain is a lot more “fun.” This is also the main access point for the popular climbing wall, Seismic. I’ve climbed Seismic several times, including once in the dark. It’s pretty magical.\"", "timestamp": null, "begin": null, "end": null, "altitudeMode": null, "tessellate": -1, "extrude": 0, "visibility": -1, "drawOrder": null, "icon": null }, "geometry": { "type": "Point", "coordinates": [ -97.8007831, 30.2437, 0.0 ] } },
{ "type": "Feature", "properties": { "Name": "Twin Falls Entrance", "description": null, "timestamp": null, "begin": null, "end": null, "altitudeMode": null, "tessellate": -1, "extrude": 0, "visibility": -1, "drawOrder": null, "icon": null }, "geometry": { "type": "Point", "coordinates": [ -97.809824, 30.244939, 0.0 ] } },
{ "type": "Feature", "properties": { "Name": "Scottish Woods Entrance", "description": "Sculpture Falls Access", "timestamp": null, "begin": null, "end": null, "altitudeMode": null, "tessellate": -1, "extrude": 0, "visibility": -1, "drawOrder": null, "icon": null }, "geometry": { "type": "Point", "coordinates": [ -97.8252237, 30.2751231, 0.0 ] } },
{ "type": "Feature", "properties": { "Name": "Violet Crown 290 Trail Head", "description": null, "timestamp": null, "begin": null, "end": null, "altitudeMode": null, "tessellate": -1, "extrude": 0, "visibility": -1, "drawOrder": null, "icon": null }, "geometry": { "type": "Point", "coordinates": [ -97.8168338, 30.2339389, 0.0 ] } },
{ "type": "Feature", "properties": { "Name": "Gus Fruh Pool", "description": null, "timestamp": null, "begin": null, "end": null, "altitudeMode": null, "tessellate": -1, "extrude": 0, "visibility": -1, "drawOrder": null, "icon": null }, "geometry": { "type": "Point", "coordinates": [ -97.7961623, 30.2477493, 0.0 ] } }
]
}
